[
    {
        "id": 1,
        "title": "Veteran Arena",
        "person": null,
        "address": "Sladovní 103/3, Pavlovičky, 779 00",
        "city": "Olomouc",
        "lat": "49.6041311",
        "lng": "17.2767589",
        "phone": "+420 585 157 438",
        "web": "http://www.veteranarena.cz/cs/"
    },
    {
        "id": 2,
        "title": "Muzeum veteránů Slatinice",
        "person": null,
        "address": "Slatinice 2, 783 42",
        "city": "Slatinice",
        "lat": "49.5618928",
        "lng": "17.0980889",
        "phone": "+420 585 429 077",
        "web": "http://www.veteranmuseum.cz/"
    },
    {
        "id": 3,
        "title": "AutoMoto muzeum Kopřivnice",
        "person": null,
        "address": "Štefánikova 220/24, 742 21",
        "city": "Kopřivnice",
        "lat": "49.6025667",
        "lng": "18.1489186",
        "phone": "+420 733 373 797",
        "web": "https://www.automotomuzeum.cz/"
    },
    {
        "id": 4,
        "title": "Muzeum veterán TATRA klub Bystřice nad Pernštejnem",
        "person": "František Prosecký",
        "address": "Kostelní 251, 593 01",
        "city": "Bystřice nad Pernštejnem",
        "lat": "49.5229611",
        "lng": "16.2621911",
        "phone": "+420 777 206 442",
        "web": "http://malirstvi.jihlavsko.com/22797/depozit-muzeum-veteran-tatra-klub-bystrice-nad-pernstejnem/"
    },
    {
        "id": 5,
        "title": "Zemědělský skanzen Rapotín",
        "person": "Milan Havlíček",
        "address": "U Lávky 34, 788 13",
        "city": "Rapotín",
        "lat": "49.9764694",
        "lng": "17.0068122",
        "phone": "+420 583 216 197",
        "web": "http://www.skanzen-rapotin.cz/"
    },
    {
        "id": 6,
        "title": "Retro muzeum Na statku",
        "person": null,
        "address": "Pěstitelská 24, 619 00",
        "city": "Brno",
        "lat": "49.1518906",
        "lng": "16.6262778",
        "phone": "+420 737 380 601 ",
        "web": "https://www.retromuzeumnastatku.cz"
    },
    {
        "id": 7,
        "title": "Muzeum silnic ve Vikýřovicích u Šumperka",
        "person": "Mgr. Alena Turková",
        "address": "Hraběšická 203, 788 13",
        "city": "Vikýřovice",
        "lat": "49.9672772",
        "lng": "16.9998100",
        "phone": "+420 602 629 843",
        "web": "http://www.muzeumsilnic.cz"
    },
    {
        "id": 8,
        "title": "RETROAUTOMUZEUM",
        "person": null,
        "address": "Strnadice 27, 257 53",
        "city": "Vrchotovy Janovice",
        "lat": "49.6979233",
        "lng": "14.5485894",
        "phone": "+420 602 735 076",
        "web": "https://www.retroautomuzeum.com/"
    },
    {
        "id": 9,
        "title": "Muzeum - Harley Pub",
        "person": null,
        "address": "Dr. E. Beneše 512, 76502",
        "city": "Otrokovice",
        "lat": "49.2013894",
        "lng": "17.5331936",
        "phone": "+420 722 940 940",
        "web": "http://www.harleypub.com/"
    },
    {
        "id": 10,
        "title": "Průmyslové muzeum Mladějov",
        "person": null,
        "address": "Mladějov na Moravě č. 121, 569 35",
        "city": "Mladějov na Moravě",
        "lat": "49.8235283",
        "lng": "16.5869561",
        "phone": "+420 604 635 779",
        "web": "https://www.mladejov.cz/uvodni-stranka"
    },
    {
        "id": 11,
        "title": "Muzeum zemědělských strojů",
        "person": null,
        "address": "Heroltice 161, 682 01",
        "city": "Hoštice-Heroltice",
        "lat": "49.2889497",
        "lng": "17.0542608",
        "phone": "+420 517 362 740",
        "web": "https://muzeumhostice.cz/"
    },
    {
        "id": 12,
        "title": "Auto moto veterán muzeum - Česká Ves Tisknout",
        "person": null,
        "address": "Tichá 252, 790 81",
        "city": "Česká Ves",
        "lat": "50.2511239",
        "lng": "17.2220650",
        "phone": "+420 584 428 218",
        "web": "http://www.jeseniky.net/muzeum-veteranu"
    },
    {
        "id": 13,
        "title": "Expozice Muzeum českého karosářství",
        "person": null,
        "address": "Náměstí Přemysla Otakara II. 96, 566 01",
        "city": "Vysoké Mýto",
        "lat": "49.9528531",
        "lng": "16.1616911",
        "phone": "+420 465 466 112",
        "web": "https://www.muzeumkarosarstvi.cz/"
    },
    {
        "id": 14,
        "title": "Tatra Museum",
        "person": null,
        "address": "Záhumenní 367/1, 742 21",
        "city": "Kopřivnice",
        "lat": "49.5994872",
        "lng": "18.1439267",
        "phone": "+420 556 808 421",
        "web": "https://www.tatramuseum.cz/"
    },
    {
        "id": 15,
        "title": "Muzeum veteránů",
        "person": null,
        "address": "Radovesnice II 110, 281 28",
        "city": "Radovesnice II",
        "lat": "50.1007647",
        "lng": "15.3609992",
        "phone": "+420 777 337 735",
        "web": "https://www.muzeumradovesnice.cz/"
    },
    {
        "id": 16,
        "title": "Retroautomuzeum",
        "person": null,
        "address": "Strnadice 27, 257 53",
        "city": "Strnadice",
        "lat": "49.6977639",
        "lng": "14.5481928",
        "phone": "+420 602 735 076",
        "web": "https://www.retroautomuzeum.com/"
    },
    {
        "id": 17,
        "title": "Muzeum socialistických vozů",
        "person": null,
        "address": "Kozovazy 12, 25087",
        "city": "Kozovazy",
        "lat": "50.1256675",
        "lng": "14.7783908",
        "phone": "+420 732 112 612",
        "web": null
    },
    {
        "id": 18,
        "title": "Automuzeum Terezín",
        "person": null,
        "address": "Terezín 400, 411 55",
        "city": "Terezín",
        "lat": "50.5139981",
        "lng": "14.1592717",
        "phone": "+420 777 337 700",
        "web": null
    },
    {
        "id": 19,
        "title": "Simson muzeum",
        "person": null,
        "address": "Na Návsi 8, 41002",
        "city": "Žabovřesky nad Ohří",
        "lat": "50.4136619",
        "lng": "14.0899592",
        "phone": "+420 603 783 689",
        "web": "http://simsonmuzeum.cz/"
    },
    {
        "id": 20,
        "title": "Muzeum motocyklů Křivoklát",
        "person": "Petr Toncar",
        "address": "Křivoklát 117, 270 23",
        "city": "Křivoklát",
        "lat": "50.0380050",
        "lng": "13.8701019",
        "phone": "+420 605 580 710",
        "web": "http://www.motomuseum.cz/moto-muzea-v-cr/muzeum-motocyklu-krivoklat/"
    },
    {
        "id": 21,
        "title": "Auto muzeum Žandov",
        "person": "Petr Goldbach",
        "address": "Dolní Police 22, 471 07",
        "city": "Žandov u České Lípy",
        "lat": "50.7124133",
        "lng": "14.3850356",
        "phone": "+420 728 754 332",
        "web": "https://autovrakoviste-zandov3.webnode.cz/sluzby/veterani/muzeum/"
    },
    {
        "id": 22,
        "title": "Muzeum amerických historických automobilů JK CLASSICS",
        "person": null,
        "address": "Stará správa 72, 270 51",
        "city": "Lužná",
        "lat": "50.1388378",
        "lng": "13.7873858",
        "phone": "+420 777 929 614",
        "web": "https://jkclassics.cz/"
    },
    {
        "id": 23,
        "title": "Muzeum sportovních vozů Lány",
        "person": null,
        "address": "Masarykovo náměstí 18, 270 61",
        "city": "Lány",
        "lat": "50.1249792",
        "lng": "13.9494325",
        "phone": "+420 313 502 045",
        "web": "http://www.auto-muzeum.cz/"
    },
    {
        "id": 24,
        "title": "Muzeum Lobzy",
        "person": null,
        "address": "Rolnické náměstí 1/5, 312 00",
        "city": "Plzeň",
        "lat": "49.7379897",
        "lng": "13.4106758",
        "phone": "+420 728 172 212",
        "web": "https://www.muzeumlobzy-cz.eu/"
    },
    {
        "id": 25,
        "title": "Trabant muzeum Praha Motol",
        "person": null,
        "address": "Plzeňská 290/215b, 150 00",
        "city": "Praha",
        "lat": "50.0679131",
        "lng": "14.3487186",
        "phone": "+420 725 555 149",
        "web": "https://www.trabantmuzeum.cz/"
    },
    {
        "id": 26,
        "title": "CABRIO GALLERY",
        "person": null,
        "address": "Dobřenice 220, 503 25",
        "city": "Dobřenice",
        "lat": "50.1463469",
        "lng": "15.6410389",
        "phone": "+420 603 272 710",
        "web": "http://www.cabrio.cz/"
    },
    {
        "id": 27,
        "title": "Cyklomuzeum Žireč",
        "person": "Marcela Jeriová",
        "address": "Žireč 166, 544 04",
        "city": "Dvůr Králové nad Labem",
        "lat": "50.4152961",
        "lng": "15.8514858",
        "phone": "+420 731 144 897",
        "web": "https://www.arealzirec.cz/cs/cyklomuzeum"
    },
    {
        "id": 28,
        "title": "Železniční muzeum Výtopna Jaroměř",
        "person": null,
        "address": "Nádražní 227, 551 01",
        "city": "Jaroměř",
        "lat": "50.3415917",
        "lng": "15.9061036",
        "phone": "+420 731 489 411",
        "web": "https://www.vytopnajaromer.cz/"
    },
    {
        "id": 29,
        "title": "Muzeum Českých drah v Lužné u Rakovníka",
        "person": null,
        "address": "9. května 255, 270 51",
        "city": "Lužná u Rakovníka",
        "lat": "50.1455006",
        "lng": "13.7755703",
        "phone": "+420 313 537 700",
        "web": "https://www.cdnostalgie.cz/"
    },
    {
        "id": 30,
        "title": "Muzeum Průmyslových Železnic",
        "person": "Filip Kaněk",
        "address": "Masarykova 248, 664 11",
        "city": "Zbýšov",
        "lat": "49.1649142",
        "lng": "16.3516681",
        "phone": "+420 605 464 222",
        "web": "http://www.mpz.cz/"
    },
    {
        "id": 31,
        "title": "ŠKODA BUS KLUB PLZEŇ",
        "person": null,
        "address": "Ke Špitálskému lesu 14, 312 00",
        "city": "Plzeň",
        "lat": "49.7483939",
        "lng": "13.4199964",
        "phone": "+420 608 411 256",
        "web": "http://skodabusklub.cz/"
    },
    {
        "id": 32,
        "title": "Muzeum MHD",
        "person": null,
        "address": "Patočkova 460/4, 162 00",
        "city": "Praha",
        "lat": "50.0942000",
        "lng": "14.3899192",
        "phone": "+420 296 128 900",
        "web": "https://www.dpp.cz/zabava-a-zazitky/historie-dpp/muzeum-mhd"
    },
    {
        "id": 33,
        "title": "Technické muzeum v Brně - expozice Pozor, zákruta!",
        "person": null,
        "address": "Purkyňova 2950/105, 612 00",
        "city": "Brno",
        "lat": "49.2282058",
        "lng": "16.5815361",
        "phone": "+420 541 421 411",
        "web": "http://www.technicalmuseum.cz/expozice/pozor-zakruta/"
    },
    {
        "id": 47,
        "title": "Letecké muzeum Metoděje Vlacha",
        "person": null,
        "address": "Regnerova 1306, 293 01",
        "city": "Mladá Boleslav",
        "lat": "50.4019939",
        "lng": "14.8993492",
        "phone": "+420 326 211 080",
        "web": "http://www.letecke-muzeum-metodeje-vlacha.cz/"
    },
    {
        "id": 35,
        "title": "Škoda Auto Muzeum",
        "person": null,
        "address": "tř. Václava Klementa 294, 293 01",
        "city": "Mladá Boleslav",
        "lat": "50.4185614",
        "lng": "14.9136583",
        "phone": "+420 326 832 038",
        "web": "https://museum.skoda-auto.cz/"
    },
    {
        "id": 36,
        "title": "MUZEUM KOL BOSKOVŠTEJN",
        "person": null,
        "address": "Boskovštejn 32, 671 54",
        "city": "Boskovštejn",
        "lat": "48.9837058",
        "lng": "15.9259753",
        "phone": "+420 727 842 057",
        "web": "https://www.muzeumkol.eu/"
    },
    {
        "id": 37,
        "title": "Muzeum techniky Telč",
        "person": null,
        "address": "Na Sádkách, 588 56",
        "city": "Telč",
        "lat": "49.1884119",
        "lng": "15.4454744",
        "phone": "+420 736 734 324",
        "web": "http://www.muzeumtechnikytelc.cz/"
    },
    {
        "id": 38,
        "title": "Muzeum autíček",
        "person": "Helena Vlčková",
        "address": "Příseka 18, 588 32",
        "city": "Brtnice",
        "lat": "49.3389828",
        "lng": "15.6468658",
        "phone": "+420 727 804 514",
        "web": "http://www.muzeumauticek.cz"
    },
    {
        "id": 39,
        "title": "Letecké muzeum v Kunovicích",
        "person": null,
        "address": "Letecká 1383, 686 04",
        "city": "Kunovice",
        "lat": "49.0347747",
        "lng": "17.4577258",
        "phone": "+420 727 909 510",
        "web": "https://www.muzeum-kunovice.cz/"
    },
    {
        "id": 40,
        "title": "Muzeum letecké a pozemní techniky",
        "person": null,
        "address": "Československé Armády 2, 682 01",
        "city": "Vyškov",
        "lat": "49.3031258",
        "lng": "17.0237706",
        "phone": "+420 604 789 651",
        "web": "https://lhs-vyskov.cz/"
    },
    {
        "id": 41,
        "title": "Letecké muzeum Kbely",
        "person": null,
        "address": "ul. Mladoboleslavská",
        "city": "Praha",
        "lat": "50.1252872",
        "lng": "14.5369508",
        "phone": "+420 973 207 500",
        "web": "http://www.vhu.cz/muzea/zakladni-informace-o-lm-kbely/"
    },
    {
        "id": 42,
        "title": "Vojenské muzeum Králíky",
        "person": null,
        "address": "Prostřední Lipka 1, 561 69",
        "city": "Králíky",
        "lat": "50.0948100",
        "lng": "16.7561153",
        "phone": "+420 608 478 732",
        "web": "https://www.armyfort.cz"
    },
    {
        "id": 43,
        "title": "Muzeum motorismu Znojmo",
        "person": "Marie Drozdová",
        "address": "Koželužská 600/44, 669 02",
        "city": "Znojmo",
        "lat": "48.8542003",
        "lng": "16.0428344",
        "phone": "+420 723 712 029",
        "web": "http://muzeum-motorismu.cz/"
    },
    {
        "id": 44,
        "title": "Muzeum historických vozidel",
        "person": null,
        "address": "náměstí Míru 20, 679 74",
        "city": "Olešnice",
        "lat": "49.5566569",
        "lng": "16.4213253",
        "phone": "+420 516 463 108",
        "web": "https://www.olesnice.cz/muzeum-historickych-vozidel"
    },
    {
        "id": 45,
        "title": "Muzeum historických vozů BMW",
        "person": null,
        "address": "Řípská 5c, 627 00",
        "city": "Brno",
        "lat": "49.1710286",
        "lng": "16.6846981",
        "phone": "+420 548 141 548",
        "web": "https://www.renocar.cz/bmw-muzeum"
    },
    {
        "id": 46,
        "title": "PRVNÍ VALAŠSKÉ MOTOMUZEUM",
        "person": "Miroslav Tomanec",
        "address": "Seninka, č.p. 1, 756 11",
        "city": "Seninka",
        "lat": "49.2706767",
        "lng": "17.9553597",
        "phone": "+420 603 260 001",
        "web": "http://www.prvnimuzeum.cz"
    },
    {
        "id": 48,
        "title": "Muzeum motorových kol",
        "person": null,
        "address": "Horní Radouň 91",
        "city": "Horní Radouň",
        "lat": "49.256964",
        "lng": "15.005132",
        "phone": "777 264 169",
        "web": "https://www.muzeumradoun.cz/"
    },
    {
        "id": 49,
        "title": "Modelové království Žďár nad Sázavou",
        "person": null,
        "address": "Dolní 183/30, 591 01",
        "city": "Žďár nad Sázavou",
        "lat": "49.5660147",
        "lng": "15.9382619",
        "phone": "+420 603 742 409",
        "web": "https://www.mkzdar.cz/"
    },
    {
        "id": 50,
        "title": "Království železnic",
        "person": null,
        "address": "Stroupežnického 3181/23, 150 00",
        "city": "Praha",
        "lat": "50.0712664",
        "lng": "14.4024658",
        "phone": "+420 257 211 386",
        "web": "https://www.kralovstvi-zeleznic.cz/"
    },
    {
        "id": 51,
        "title": "Veterán Muzeum Jílovice",
        "person": null,
        "address": "Jílovice 111, 373 32",
        "city": "Jílovice",
        "lat": "48.8773078",
        "lng": "14.7052594",
        "phone": "+420 602 496 145",
        "web": null
    },
    {
        "id": 52,
        "title": "Muzeum Veteránů Nová Bystřice",
        "person": null,
        "address": "Vídeňská 136, 37833",
        "city": "Nová Bystřice",
        "lat": "49.0186731",
        "lng": "15.1058111",
        "phone": "+420 777 004 699",
        "web": "https://muzeumveteranu.cz/"
    },
    {
        "id": 53,
        "title": "Muzeum Janecký Chotoviny",
        "person": null,
        "address": "Táborská 199, 391 37",
        "city": "Chotoviny",
        "lat": "49.4735133",
        "lng": "14.6741600",
        "phone": "+420 777 102 040",
        "web": "http://janecky.cz/veterani/"
    },
    {
        "id": 54,
        "title": "Podbrdské muzeum",
        "person": "Ing. Iva Ježková, DiS.",
        "address": "Palackého 10",
        "city": "Rožmitál pod Třemšínem",
        "lat": "49.601848",
        "lng": "13.864834",
        "phone": "311 249 262",
        "web": "https://www.podbrdskemuzeum.cz"
    },
    {
        "id": 55,
        "title": "Muzeum historických motocyklů JAWA Rabakov",
        "person": null,
        "address": "Rabakov 35",
        "city": "Rabakov",
        "lat": "50.379540",
        "lng": "15.101666",
        "phone": "604 912 502",
        "web": "http://www.jawa-muzeum.cz/"
    },
    {
        "id": 56,
        "title": "Muzeum Moto & Velo",
        "person": "Tomáš Moravec",
        "address": "Přerov nad Labem 27",
        "city": "Nymburk",
        "lat": "50.159204",
        "lng": "14.823861",
        "phone": "602 272 615",
        "web": "http://www.motovelomuzeum.cz"
    },
    {
        "id": 57,
        "title": "Muzeum potravin a zemědělských strojů",
        "person": null,
        "address": "Vítkovice 3033",
        "city": "Ostrava-Vítkovice",
        "lat": "49.821748",
        "lng": "18.281626",
        "phone": "777 485 152",
        "web": "https://www.nzm.cz/muzeum-potravin-a-zemedelskych-stroju-ostrava"
    },
    {
        "id": 58,
        "title": "Muzeum hraček Ostrava",
        "person": null,
        "address": "Vítkovická 3083/1",
        "city": "Moravská Ostrava",
        "lat": "49.831011",
        "lng": "18.280488",
        "phone": "730 898 410",
        "web": "http://muzeumhracekostrava.cz/"
    },
    {
        "id": 59,
        "title": "Park Františka Šťastného",
        "person": null,
        "address": "Kochánky 217",
        "city": "Předměřice nad Jizerou",
        "lat": "50.273982",
        "lng": "14.78159",
        "phone": "777 555 113",
        "web": "https://parkfrantiskastastneho.cz"
    },
    {
        "id": 60,
        "title": "1. České muzeum motocyklů & galerie",
        "person": "Ing. Pavel HOLCMANN ",
        "address": "Lesná u Znojma 12",
        "city": "Lesná u Znojma",
        "lat": "48.906900",
        "lng": "15.871165",
        "phone": "602 745 458",
        "web": "http://www.veteransalon.cz/"
    },
    {
        "id": 61,
        "title": "Motomuzeum Sezemice",
        "person": "Libor Novák",
        "address": "Palackého 130",
        "city": "Sezemice",
        "lat": "50.067140",
        "lng": "15.853950",
        "phone": "724 252 875",
        "web": "http://www.motomuzeum.cz/exponaty-motomuzea.php"
    },
    {
        "id": 62,
        "title": "Muzeum historických motocyklů Kašperské Hory",
        "person": "Zdeněk Bálek",
        "address": "Vimperská 12",
        "city": "Kašperské Hory",
        "lat": "49.144367",
        "lng": "13.556738",
        "phone": "606 737 041",
        "web": "http://www.historicke-moto.cz"
    },
    {
        "id": 63,
        "title": "Muzeum historických motocyklů Železná Ruda",
        "person": "Zdeněk Bálek",
        "address": "Klostermannovo náměstí 1",
        "city": "Železná Ruda",
        "lat": "49.137808",
        "lng": "13.234560",
        "phone": "606 737 041",
        "web": "http://www.historicke-moto.cz"
    },
    {
        "id": 64,
        "title": "Muzeum historických motocyklů Bečov nad Teplou",
        "person": "Zdeněk Bálek",
        "address": "Náměstí 5. května 2",
        "city": "Bečov nad Teplou",
        "lat": "50.084222",
        "lng": "12.839235",
        "phone": "606 737 041",
        "web": "http://www.historicke-moto.cz"
    },
    {
        "id": 65,
        "title": "Muzeum historických motocyklů Svratouch",
        "person": null,
        "address": "Svratouch 231",
        "city": "Svratouch",
        "lat": "49.723302",
        "lng": "16.035995",
        "phone": "603 325 913",
        "web": "http://muzeumsvratouch.cz/"
    },
    {
        "id": 66,
        "title": "Muzeum Motocyklů Šestajovice",
        "person": "Petr Rundštuk",
        "address": "Šestajovice 4, 55101",
        "city": "Šestajovice",
        "lat": "50.3418731",
        "lng": "16.0072211",
        "phone": "+420 774 903 530",
        "web": "http://www.muzeum-motocyklu.cz"
    },
    {
        "id": 67,
        "title": "Muzeum motocyklů Konopiště",
        "person": null,
        "address": "Konopiště 30, 256 01",
        "city": "Konopiště",
        "lat": "49.7830219",
        "lng": "14.6570550",
        "phone": "+420 317 702 658",
        "web": null
    },
    {
        "id": 68,
        "title": "Motomuzeum Borek pod Troskami",
        "person": null,
        "address": "Borek 14, 512 63",
        "city": "Borek",
        "lat": "50.5361189",
        "lng": "15.2310614",
        "phone": "733 795 828",
        "web": "https://www.motomuzeumborek.cz/"
    },
    {
        "id": 69,
        "title": "Muzeum historických motocyklů",
        "person": null,
        "address": "Široká 80, 381 01",
        "city": "Český Krumlov",
        "lat": "48.8115883",
        "lng": "14.3135347",
        "phone": "+420 736 634 460",
        "web": "http://krumlovskymlyn.cz/dalsi-sluzby/"
    },
    {
        "id": 70,
        "title": "MUZEUM JAWY OD SÁZAVY",
        "person": null,
        "address": "Jirsíkova 30, 285 09",
        "city": "Kácov",
        "lat": "49.7778772",
        "lng": "15.0276264",
        "phone": "608 40 40 17",
        "web": "https://jawyodsazavy.cz/"
    },
    {
        "id": 71,
        "title": "MUZEUM KOČÁRŮ, z. ú.",
        "person": "Václav OBR",
        "address": "náměstí Svobody 377",
        "city": "Čechy pod Kosířem",
        "lat": "49.551291",
        "lng": "17.034628",
        "phone": "+420 602 557 167 ",
        "web": "https://www.historickekocary.cz"
    },
    {
        "id": 72,
        "title": "Klub vojenské historie Deštné",
        "person": null,
        "address": "Litultovice 206, 747 55",
        "city": "Litultovice",
        "lat": "49.8931203",
        "lng": "17.7096919",
        "phone": null,
        "web": "http://www.kvh-destne.opavsko.com/"
    },
    {
        "id": 73,
        "title": "Jihočeské motocyklové muzeum",
        "person": "Petr Hošťálek",
        "address": "Malá Solnice, Piaristické náměstí",
        "city": "České Budějovice",
        "lat": "48.976115",
        "lng": "14.471879",
        "phone": "723 247 104",
        "web": "https://motomuseum-hostalek.cz"
    },
    {
        "id": 74,
        "title": "Classic & Sports Car",
        "person": null,
        "address": "Meziříčská 1655",
        "city": "Rožnov pod Radhoštěm",
        "lat": "49.45937559877346",
        "lng": "18.129899736474943",
        "phone": "+420 601 698 698",
        "web": "https://www.classic-sports-cars.cz"
    },
    {
        "id": 75,
        "title": "Muzeum historických vozidel a staré zemědělské techniky",
        "person": "Ervín Jiříček",
        "address": "Pořežany 24, 375 01",
        "city": "Pořežany",
        "lat": "49.1737169",
        "lng": "14.4962250",
        "phone": "+420 604 675 031",
        "web": "http://muzeum.wz.cz/"
    },
    {
        "id": 76,
        "title": "Tatra muzeum",
        "person": "Ctibor Veleba",
        "address": "Bítov 48, 671 07",
        "city": "Bítov",
        "lat": "48.9366569",
        "lng": "15.7282014",
        "phone": "+420 604 231 026",
        "web": "https://tatramuseumbitov.webnode.cz/"
    },
    {
        "id": 77,
        "title": "VETERAN BAZAR & MUZEUM",
        "person": null,
        "address": "Chotusice 158, 285 76",
        "city": "Chotusice",
        "lat": "49.9494033",
        "lng": "15.3938500",
        "phone": "+420 327 399 248",
        "web": "https://www.oldtimer.cz/VeteranBazar/"
    },
    {
        "id": 78,
        "title": "Historic Car Museum",
        "person": null,
        "address": "Labská stezka 2",
        "city": "Kuks",
        "lat": "50.400897",
        "lng": "15.890721",
        "phone": "+420 604 876 122",
        "web": "http://www.veteran-muzeum-kuks.cz/"
    },
    {
        "id": 79,
        "title": "AUTOMUZEUM SVĚT ŠKODOVEK",
        "person": "Blanka Kunčarová",
        "address": "Mrač 73, 257 51",
        "city": "Mrač",
        "lat": "49.84370803453793",
        "lng": "14.694319495410586",
        "phone": "+420 602 705 155 ",
        "web": "https://www.svet-skodovek.cz/"
    },
    {
        "id": 80,
        "title": "Soukromé muzeum Tatra 111 v Dobříči",
        "person": "Milan Horka",
        "address": "Dobříč 70",
        "city": "Praha",
        "lat": "50.0214089",
        "lng": "14.2598794",
        "phone": "+420 603 182 823",
        "web": "http://www.muzeumtatra111.cz/"
    },
    {
        "id": 81,
        "title": "Samohýl Motor Veterán",
        "person": "Josef Tlusťák",
        "address": "třída Tomáše Bati 764",
        "city": "Zlín-Prštné",
        "lat": "49.21731540388313",
        "lng": "17.628648735366838",
        "phone": "+420 777 828 995",
        "web": "https://www.samohylmotorveteran.cz/"
    }
]